[{"id":"2","Codigo":"476","title":"2-K TRATORES E MAQUINAS AGRICS. LTDA","country":"Brasil","state":"SP","city":"Barretos","address":"Av. Eng. Necker C.camargo","numero":"1.541","zipcode":"14783-080","phone":"(17) 3322-3175","phone2":"","whatsapp":"","fax":"(17) 3322-3929","email":"doisktratores@gmail.com","email2":"","latitude":"-20.56967970","longitude":"-48.57574640","tratores":"0","implementos":"1","pecas":"0"},{"id":"3","Codigo":"480","title":"TRATORMAQ COML. E REPRESENTA\u00c7\u00c3O LTDA","country":"Brasil","state":"AP","city":"Macap\u00e1","address":"Rodovia Br 156 - Jardim Felicidade","numero":"","zipcode":"68909-130","phone":"(96) 3251-1017","phone2":"","whatsapp":"","fax":"(96) 3251-1321","email":"tratormak@tratormak.com.br","email2":"","latitude":"-51.20259520","longitude":"-30.13073500","tratores":"1","implementos":"0","pecas":"0"},{"id":"4","Codigo":"481","title":"C. DE SOUZA VOLANTE - ME","country":"Brasil","state":"AP","city":"Macap\u00e1","address":"Av. Avenida Mendon\u00e7a Junior","numero":"253","zipcode":"68900-000","phone":"(96) 3242-4959","phone2":"","whatsapp":"","fax":"","email":"paranacs@uol.com.br","email2":"","latitude":"-51.05133980","longitude":"0.07009930","tratores":"0","implementos":"0","pecas":"1"},{"id":"5","Codigo":"483","title":"ARAUJO ANTUNES & FILHOS","country":"Brasil","state":"AM","city":"Itacoatiara","address":"Rua Adamastor De Figueired - Centro","numero":"2225","zipcode":"69100-000","phone":"(92) 3521-1470","phone2":"","whatsapp":"","fax":"(92) 3521-1788","email":"araujoantunes@proamazon.com.br","email2":"","latitude":"-3.13321910","longitude":"-58.43611500","tratores":"0","implementos":"1","pecas":"1"},{"id":"6","Codigo":"484","title":"MOTONORTE MOTS M DO NORTE LTDA","country":"Brasil","state":"AM","city":"Manaus","address":"Rua Miranda Leao - Centro","numero":"411","zipcode":"69005-040","phone":"(92) 3622-4522","phone2":"","whatsapp":"","fax":"(92) 3622-1349","email":"motonorte@motonorte.com.br","email2":"","latitude":"-3.13941450","longitude":"-60.02151280","tratores":"1","implementos":"0","pecas":"1"},{"id":"7","Codigo":"485","title":"J\u00d4 PNEUS LTDA","country":"Brasil","state":"AM","city":"Manaus","address":"Av. Tefe Cachoeirinha","numero":"453","zipcode":"69065-020","phone":"(92) 3303-3777","phone2":"","whatsapp":"","fax":"(92) 3663.-1030","email":"jopneusmanaus@hotmail.com","email2":"","latitude":"-3.12455750","longitude":"-60.00479610","tratores":"1","implementos":"1","pecas":"0"},{"id":"8","Codigo":"486","title":"SOTEMAQ SOCIEDADE T\u00c9CNICA DE M\u00c1QUINAS LTDA","country":"Brasil","state":"AM","city":"Manaus","address":"Rua Miranda Le\u00e3o - Centro","numero":"535","zipcode":"69005-040","phone":"(92) 3233-8550","phone2":"","whatsapp":"","fax":"(92) 3233-6742","email":"sotemaq@yahoo.com.br","email2":"","latitude":"-3.13941450","longitude":"-60.02151280","tratores":"1","implementos":"1","pecas":"1"},{"id":"9","Codigo":"487","title":"MAQUIPEL COMERCIO DE MAQS. E PE\u00c7AS LTDA","country":"Brasil","state":"AM","city":"Manaus","address":"Rua Leovegildo Coelho - Centro","numero":"316","zipcode":"69005-090","phone":"(92) 3633-6760","phone2":"","whatsapp":"","fax":"(92) 3633-1404","email":"maquipel@uol.com.br","email2":"","latitude":"-3.13863800","longitude":"-60.02154470","tratores":"0","implementos":"0","pecas":"0"},{"id":"10","Codigo":"488","title":"M. E. DO ROSARIO JR. REPRESENTACOES","country":"Brasil","state":"AM","city":"Parintins","address":"Rua Ruy Barbosa","numero":"1968-B","zipcode":"69151-260","phone":"(92) 3533.1304","phone2":"","whatsapp":"","fax":"(92) 3533.1304","email":"lojasantoantonio@jurupari.com.br","email2":"","latitude":"-2.62420340","longitude":"-56.73461600","tratores":"0","implementos":"0","pecas":"0"},{"id":"11","Codigo":"489","title":"PULVETEC MAQUINAS AGRICOLAS LTDA. (02 BA)","country":"Brasil","state":"BA","city":"Bonito","address":"Avenida Antonio Carlos Magalhaes","numero":"918","zipcode":"46820-000","phone":"(75) 3343-2182","phone2":"","whatsapp":"","fax":"(75) 3343-2182","email":"pulvetec@uol.com.br","email2":"","latitude":"-11.96720600","longitude":"-41.26507270","tratores":"0","implementos":"0","pecas":"0"},{"id":"12","Codigo":"490","title":"GRAND RURAL LTDA - EPP","country":"Brasil","state":"BA","city":"Eun\u00e1polis","address":"Tupiniquins \u2013 Pequi","numero":"1397","zipcode":"45828-102","phone":"(73) 3281-7929","phone2":"","whatsapp":"73 - 99931-9609","fax":"","email":"grandrural@grandrural.com.br","email2":"tiagosantana@grandrural.com.br","latitude":"-16.37188000","longitude":"-39.56847000","tratores":"0","implementos":"0","pecas":"0"},{"id":"13","Codigo":"491","title":"CASA DO JAPON\u00caS MAQUINAS E PE\u00c7AS LTDA","country":"Brasil","state":"BA","city":"Itabuna","address":"Av. In\u00e1cio Tosta Filho - Centro","numero":"797","zipcode":"45600-201","phone":"(73) 3613-3931","phone2":"","whatsapp":"","fax":"(73) 3613-3371","email":"vendas@casadojapones.com.br","email2":"","latitude":"-14.78803270","longitude":"-39.27841780","tratores":"0","implementos":"0","pecas":"0"},{"id":"14","Codigo":"492","title":"BAMAGRIL-BARCELLOS MAQUINAS AGR\u00cdCOLAS BAHIA LTDA","country":"Brasil","state":"BA","city":"Luis Eduardo Magalh\u00e3es","address":"Av. Jk Quadra 07, Caixa Postal: 924 - Centro","numero":"Lotes 01, 02 e 03","zipcode":"47850-000","phone":"(77) 3628-3330","phone2":"","whatsapp":"","fax":"(77) 3628-3409","email":"bamagril@uol.com.br","email2":"","latitude":"-12.09045420","longitude":"-45.78053750","tratores":"0","implementos":"0","pecas":"0"},{"id":"15","Codigo":"493","title":"GRAND RURAL LTDA \u2013 EPP MATRIZ ","country":"Brasil","state":"BA","city":"Teixeira De Freitas","address":"Rod. Br 101 - Bairro Monte Castelo","numero":"1480","zipcode":"45990-012","phone":"(73) 3292-6950","phone2":"","whatsapp":"73 - 99931-9609","fax":"","email":"grandrural@grandrural.com.br","email2":"tiagosantana@grandrural.com.br","latitude":"-17.53429150","longitude":"-39.71230270","tratores":"0","implementos":"0","pecas":"0"},{"id":"16","Codigo":"495","title":"TERRAQUA COMERCIO E SERVICOS DE EQUIPAMENTOS AGRICOLAS LTDA","country":"Brasil","state":"CE","city":"Maracanau","address":"Rod Dr. Mendel Steinbruch","numero":"","zipcode":"61939-906","phone":"(85) 3388-4545","phone2":"(85) 3388-4504","whatsapp":"","fax":"","email":"gerencia@terraqua.com.br","email2":"","latitude":"-3.85067500","longitude":"-38.59464400","tratores":"0","implementos":"0","pecas":"0"},{"id":"17","Codigo":"496","title":"A MORENO INDUSTRIA E COMERCIO LTDA","country":"Brasil","state":"CE","city":"Iguatu","address":"Rua Deocleciano Bezerra","numero":"779","zipcode":"60850-000","phone":"(85) 3444-2500","phone2":"","whatsapp":"","fax":"(85) 3444-2500","email":"gerencia@amoreno.com.br","email2":"","latitude":"-6.35567800","longitude":"-39.29565000","tratores":"0","implementos":"0","pecas":"0"},{"id":"18","Codigo":"497","title":"FORTEAGRO PRODUTOS AGROPECU\u00c1RIOS","country":"Brasil","state":"CE","city":"Guaraciaba Do Norte","address":"Rua Cel. Jo\u00e3o C\u00edcero - Centro","numero":"340","zipcode":"62380-000","phone":"(88) 3652-2170","phone2":"","whatsapp":"","fax":"","email":"forteagroltda@gmail.com","email2":"","latitude":"-4.16325660","longitude":"-40.75040290","tratores":"0","implementos":"0","pecas":"0"},{"id":"19","Codigo":"498","title":"A MORENO INDUSTRIA E COMERCIO LTDA","country":"Brasil","state":"CE","city":"Iguatu","address":"Rua Deocleciano Bezerra","numero":"779","zipcode":"63500-000","phone":"(88) 3581-1003","phone2":"","whatsapp":"","fax":"(88) 3581-2580","email":"goncalves.oliveira@amoreno.com.br","email2":"","latitude":"-6.35567800","longitude":"-39.29565000","tratores":"0","implementos":"0","pecas":"0"},{"id":"20","Codigo":"499","title":"JO\u00c3O RIBEIRO LIMA & CIA. LTDA","country":"Brasil","state":"CE","city":"Ubajara","address":"Rua 31 De Dezembro - Centro","numero":"325","zipcode":"62350-000","phone":"(88) 3634-1381","phone2":"","whatsapp":"","fax":"(88) 3634-1381","email":"casadavariedade@bol.com.br","email2":"","latitude":"-3.85485820","longitude":"-40.92080160","tratores":"0","implementos":"0","pecas":"0"},{"id":"21","Codigo":"500","title":"HANASHIRO MAQUINAS AGRICOLAS LTDA","country":"Brasil","state":"DF","city":"Bras\u00edlia","address":"Sia\/sul Quadra 5c","numero":"221","zipcode":"71200-055","phone":"(61) 3233-3440","phone2":"","whatsapp":"","fax":"(61) 3233-3060","email":"hanashiro@hanashiro.com.br","email2":"","latitude":"-15.82179690","longitude":"-47.92342180","tratores":"0","implementos":"0","pecas":"0"},{"id":"22","Codigo":"502","title":"COMERCIAL SCARDUA","country":"Brasil","state":"ES","city":"Serra","address":"Rodovia Governador Mario Covas","numero":"4251","zipcode":"29620-000","phone":"(27) 3720-4500","phone2":"","whatsapp":"(27) 9 9720-3423","fax":"(27) 3720-4501","email":"comercial@comercialscardua.com.br","email2":"","latitude":"-19.87262300","longitude":"-40.87526580","tratores":"0","implementos":"0","pecas":"0"},{"id":"23","Codigo":"504","title":"A TRATOR DIESEL","country":"Brasil","state":"GO","city":"Goi\u00e2nia","address":"Av. Bandeirantes - Bairro Ipiranga","numero":"300 Qd. 85 Lt 6e","zipcode":"74453-040","phone":"(62) 3086-7200","phone2":"(62) 99186-0137","whatsapp":"","fax":"","email":"falecom@atratordiesel.com.br","email2":"","latitude":"-16.66038350","longitude":"-49.32842680","tratores":"0","implementos":"0","pecas":"0"},{"id":"24","Codigo":"509","title":"L. LUCENA COM. DE P\u00c7AS E MOTORES","country":"Brasil","state":"MA","city":"Gov. Nunes Freitas","address":"Rua Do Comercio","numero":"2011","zipcode":"65284-000","phone":"(98) 3371-1126","phone2":"","whatsapp":"","fax":"(98) 3371-1126","email":"compemol@hotmail.com","email2":"","latitude":"-2.12935540","longitude":"-45.87808410","tratores":"0","implementos":"0","pecas":"0"},{"id":"25","Codigo":"510","title":"M. VENI ARA\u00daJO TEIXEIRA","country":"Brasil","state":"MA","city":"Nunes Freire","address":"Rua Do Com\u00e9rcio \u2013 Centro","numero":"2003","zipcode":"65284-000","phone":"(98) 3371-1226","phone2":"","whatsapp":"","fax":"(98) 3371-1226","email":"compemol@hotmail.com","email2":"","latitude":"-2.12935540","longitude":"-45.87808410","tratores":"0","implementos":"0","pecas":"0"},{"id":"26","Codigo":"511","title":"AGRORIO M\u00c1QUINAS AGR\u00cdCOLAS LTDA","country":"Brasil","state":"MT","city":"\u00c1gua Boa","address":"Rua 10, Caixa Postal 151 - Setor Industrial","numero":"171","zipcode":"78635-000","phone":"(66) 3468-3470","phone2":"","whatsapp":"","fax":"(66) 3468-3881","email":"riama.implementos@riama.com.br","email2":"rafaelvendas@gmail.com","latitude":"-14.04748900","longitude":"-52.15938340","tratores":"0","implementos":"0","pecas":"0"},{"id":"27","Codigo":"512","title":"REGIONAL TRATORES LTDA","country":"Brasil","state":"MT","city":"Canarana","address":"Rua Tenente Portela - Centro","numero":"445","zipcode":"78640-000","phone":"(66) 3478-2187","phone2":"","whatsapp":"","fax":"(66) 3478-1231","email":"regionaltratoresltda@uol.com.br","email2":"","latitude":"-13.55647390","longitude":"-52.26911230","tratores":"0","implementos":"0","pecas":"0"},{"id":"28","Codigo":"513","title":"CARPAU PRODUTOS AGROPECU\u00c1RIOS LTDA. - ME","country":"Brasil","state":"MT","city":"Peixoto De Azevedo","address":"Rua Lauro Leite","numero":"82","zipcode":"78530-000","phone":"(66) 3575-1818","phone2":"","whatsapp":"","fax":"(66) 3595-1818","email":"carpaupeixoto@hotmail.com","email2":"","latitude":"-10.24469130","longitude":"-54.98872180","tratores":"0","implementos":"0","pecas":"0"},{"id":"29","Codigo":"514","title":"BRANCHER MOTORES E M\u00c1QUINAS LTDA","country":"Brasil","state":"MT","city":"Pontes Lacerda","address":"Av. Marechal Rondon - Centro","numero":"1351","zipcode":"78250-000","phone":"(65) 3266-1320","phone2":"","whatsapp":"","fax":"(65) 3266-2509","email":"branchermotores@terra.com.br","email2":"","latitude":"-15.23322710","longitude":"-59.32824500","tratores":"0","implementos":"0","pecas":"0"},{"id":"30","Codigo":"515","title":"GP COM\u00c9RCIO DE FILTROS E LUBRIFICANTES LTDA","country":"Brasil","state":"MT","city":"Rondonopolis","address":"A. Fernando Correa Da Costa - Vila Birigui","numero":"1987","zipcode":"78705-600","phone":"(66) 3426-7222","phone2":"","whatsapp":"","fax":"(66) 3426-6269","email":"promaxsupertroca@terra.com.br","email2":"","latitude":"-16.46547570","longitude":"-54.63872290","tratores":"0","implementos":"0","pecas":"0"},{"id":"31","Codigo":"516","title":"SERT\u00c3O COMERCIAL DE EQUIPAMENTOS AGR\u00cdCOLAS LTDA","country":"Brasil","state":"MS","city":"Campo Grande","address":"Rua 13 De Maio - Santa Dorotheia","numero":"557","zipcode":"79004-423","phone":"(67) 3317-5010","phone2":"","whatsapp":"","fax":"(67) 3317-5001","email":"daniela@sertao.com.br","email2":"","latitude":"-20.46971050","longitude":"-54.62012110","tratores":"0","implementos":"0","pecas":"0"},{"id":"32","Codigo":"517","title":"VALTER FERNANDES DE LIMA - ME","country":"Brasil","state":"MS","city":"Dourados","address":"Rua Hayel Bom Faker","numero":"1470","zipcode":"79810-100","phone":"(67) 3421-1947","phone2":"","whatsapp":"","fax":"(67) 3421-1947","email":"motocarddos@yahoo.com.br","email2":"","latitude":"-22.18152490","longitude":"-54.67312880","tratores":"0","implementos":"0","pecas":"0"},{"id":"33","Codigo":"520","title":"AGROPECUARIA UBA LTDA. (LIDER MAQ.)","country":"Brasil","state":"MG","city":"Barbacena","address":"Av. Governador Bias Fortes - Pontilh\u00e3o","numero":"1639","zipcode":"36500-000","phone":"(32) 3333-6688","phone2":"","whatsapp":"","fax":"(32) 3333-6688","email":"lidermaq@yahoo.com.br","email2":"","latitude":"-21.22154400","longitude":"-43.76998000","tratores":"0","implementos":"0","pecas":"0"},{"id":"34","Codigo":"521","title":"GEMAPE M\u00c1QUINAS E PE\u00c7AS LTDA","country":"Brasil","state":"MG","city":"Belo Horizonte","address":"Av. Cristiano Machado","numero":"7220","zipcode":"31810-280","phone":"(31) 3029-4666","phone2":"","whatsapp":"","fax":"(31) 3029-4651","email":"gemape@gemape.com.br","email2":"","latitude":"-19.86130020","longitude":"-43.92877490","tratores":"0","implementos":"0","pecas":"0"},{"id":"35","Codigo":"522","title":"ALVORADA TRATORES","country":"Brasil","state":"MG","city":"Boa Esperan\u00e7a","address":"Rodovia Br 265, A 300 M Do Trevo Capebe \u2013 Zona Rural - Caixa Postal: 10","numero":"","zipcode":"37170-000","phone":"(35) 3851-1140","phone2":"","whatsapp":"","fax":"(35) 3851-1851","email":"alvoradatratoresvendas@hotmail.com","email2":"","latitude":"-21.09282520","longitude":"-45.56296030","tratores":"0","implementos":"0","pecas":"0"},{"id":"36","Codigo":"523","title":"TRES VALES AGROPECUARIA LTDA","country":"Brasil","state":"MG","city":"Capelinha","address":"Rua Rio Branco - Planalto","numero":"1213","zipcode":"39680-000","phone":"(33) 3516-1467","phone2":"","whatsapp":"","fax":"(33) 3516-1948","email":"tresvale@uai.com.br","email2":"","latitude":"-17.69299450","longitude":"-42.51721070","tratores":"0","implementos":"0","pecas":"0"},{"id":"37","Codigo":"524","title":"NUTRICAMPO LTDA","country":"Brasil","state":"MG","city":"Igarap\u00e9","address":"Av. Bernardino Da Silva Couto - Centro","numero":"1700","zipcode":"32900-000","phone":"(31) 3534-1275","phone2":"","whatsapp":"","fax":"(31) 3534-1275","email":"vendas@nutricampo.com.br","email2":"nutricampo@nutricampo.com.br","latitude":"-20.07115210","longitude":"-44.29986550","tratores":"0","implementos":"0","pecas":"0"},{"id":"38","Codigo":"526","title":"DALMEI COMERCIO REPRESENTA\u00c7\u00d5ES LTDA","country":"Brasil","state":"MT","city":"Sorriso","address":"Av. Perimetral Sudeste","numero":"11287","zipcode":"78890-000","phone":"(66) 3544-1658","phone2":"","whatsapp":"","fax":"(66) 3544-1658","email":"dalmeisorriso@bol.com.br","email2":"","latitude":"-12.54294560","longitude":"-55.72153670","tratores":"0","implementos":"0","pecas":"0"},{"id":"39","Codigo":"527","title":"CASA DA LAVOURA LTDA","country":"Brasil","state":"MT","city":"V\u00e1rzea Grande","address":"Av. Da Feb","numero":"2220","zipcode":"78110-000","phone":"(65) 3682-5051","phone2":"","whatsapp":"","fax":"(65) 3682-1833","email":"lavoura@agromt.com.br","email2":"","latitude":"-15.65228700","longitude":"-56.15709000","tratores":"0","implementos":"0","pecas":"0"},{"id":"40","Codigo":"528","title":"GILDA DA CUNHA GUEDES VILELA \u2013 ME","country":"Brasil","state":"MG","city":"Ouro Fino","address":"Rua Olimpio Garcia Dos Santos \u2013 Centro","numero":"85","zipcode":"37570-000","phone":"(35) 3441-5320","phone2":"","whatsapp":"","fax":"","email":"jamaquinasof@yahoo.com.br","email2":"","latitude":"-22.27853730","longitude":"-46.37121290","tratores":"0","implementos":"0","pecas":"0"},{"id":"41","Codigo":"529","title":"IAMAQ TRATORES E MAQUINAS LTDA","country":"Brasil","state":"MG","city":"Patos De Minas","address":"Av. Jk","numero":"940","zipcode":"38706-000","phone":"(34) 3822-5500","phone2":"","whatsapp":"","fax":"(34) 3822-5500","email":"iamaqvendas@yahoo.com.br","email2":"","latitude":"-18.61279120","longitude":"-46.51341790","tratores":"0","implementos":"0","pecas":"0"},{"id":"42","Codigo":"530","title":"PARK M\u00c1QUINAS AGR\u00cdCOLAS LTDA","country":"Brasil","state":"MG","city":"Patroc\u00ednio","address":"Avenida Faria Pereira - Bairro Morada Do Sol","numero":"810","zipcode":"38743-110","phone":"(34) 3831-9810","phone2":"","whatsapp":"","fax":"","email":"paulobotelho@parkmaquinas.com.br","email2":"","latitude":"-18.92457000","longitude":"-47.00645390","tratores":"0","implementos":"0","pecas":"0"},{"id":"43","Codigo":"531","title":"NENA TRATORES E IMPLEMENTOS LTDA","country":"Brasil","state":"MG","city":"Alfenas","address":"Av. Mario Barbosa Vieira - Loteamento Trevo","numero":"954","zipcode":"37925-000","phone":"(37) 3371-4999","phone2":"","whatsapp":"","fax":"","email":"pedrohpacheco@hotmail.com","email2":"","latitude":"-20.47424880","longitude":"-45.96198610","tratores":"0","implementos":"0","pecas":"0"},{"id":"44","Codigo":"532","title":"SAMI M\u00c1QUINAS","country":"Brasil","state":"MG","city":"Franca","address":"Av. Wilson Sabio De Mello - Bairro Polo Industrial S\u00e3o Bernardo","numero":"2141","zipcode":"37950-000","phone":"(35) 3531-7000","phone2":"","whatsapp":"","fax":"","email":"filial@samimaquinas.com.br","email2":"","latitude":"-20.91721280","longitude":"-46.98414430","tratores":"0","implementos":"0","pecas":"0"},{"id":"45","Codigo":"533","title":"CAMPOMAC AGRY LTDA","country":"Brasil","state":"MG","city":"Te\u00f3filo Otoni","address":"Av. Sid\u00f4nio Otoni - F\u00e1tima","numero":"606","zipcode":"39800-224","phone":"(33) 3522-6120","phone2":"","whatsapp":"","fax":"","email":"campomac@campomac.com.br","email2":"","latitude":"-17.84996800","longitude":"-41.51877520","tratores":"0","implementos":"0","pecas":"0"},{"id":"46","Codigo":"534","title":"AGROCAMPINHO COML DE TRATORES E IMPLS AGRICOLAS LTDA","country":"Brasil","state":"MG","city":"Ub\u00e1","address":"Rodovia Mg 447 Uba A Visconde Do Rio Branco Km 6 S\/n Zona Rural","numero":"","zipcode":"36500-000","phone":"(32) 3532-3293","phone2":"","whatsapp":"","fax":"(32) 3532-3293","email":"fernando@agrocampinhomaquinas.com.br","email2":"","latitude":"-21.03235200","longitude":"-42.85171000","tratores":"0","implementos":"0","pecas":"0"},{"id":"47","Codigo":"535","title":"TRIAMAQ","country":"Brasil","state":"MG","city":"Uberl\u00e2ndia","address":"Av. Prof. Minervina C. De Oliveira - Bom Jesus","numero":"2270","zipcode":"38400-746","phone":"(34) 3236-9001","phone2":"(34) 3236-2448","whatsapp":"","fax":"(34) 3236-2448","email":"triamaq@triamaq.com.br","email2":"","latitude":"-18.89398000","longitude":"-48.27168000","tratores":"0","implementos":"0","pecas":"0"},{"id":"48","Codigo":"537","title":"AGROMAX EQUIPAMENTOS AGRICOLAS LTDA","country":"Brasil","state":"PA","city":"Ananindeua","address":"Rod. Br. 316 Km 05 - Bairro Coqueiros","numero":"900","zipcode":"67015-220","phone":"(91) 3184-8100","phone2":"","whatsapp":"","fax":"(91) 3184-8102","email":"vendas@agromaxnh.com.br","email2":"","latitude":"-1.36669120","longitude":"-48.41379240","tratores":"0","implementos":"0","pecas":"0"},{"id":"49","Codigo":"538","title":"MOTOBEL MOTORES DE BELEM LTDA. (1)","country":"Brasil","state":"PA","city":"Ananindeua","address":"Rod. Br 316 Km 2,5 S\/n","numero":"","zipcode":"67013-000","phone":"(91) 3202-3000","phone2":"","whatsapp":"","fax":"(91) 3202-3088","email":"motobel@motobel.com.br","email2":"","latitude":"-1.39433600","longitude":"-48.42627360","tratores":"0","implementos":"0","pecas":"0"},{"id":"50","Codigo":"539","title":"AGR COM\u00c9RCIO DE PE\u00c7AS AGR\u00cdCOLAS LTDA","country":"Brasil","state":"PA","city":"Ananindeua","address":"Rodovia Br 316, Km 05 \u2013 \u00c1guas Lindas","numero":"","zipcode":"67020-000","phone":"(91) 3245-2591","phone2":"","whatsapp":"","fax":"","email":"agrpecas@hotmail.com","email2":"","latitude":"-1.39170290","longitude":"-48.38883840","tratores":"0","implementos":"0","pecas":"0"},{"id":"51","Codigo":"540","title":"MAQBEL MAQS EQUIPAMENTOS SERVICOS LT","country":"Brasil","state":"PA","city":"Bel\u00e9m","address":"Rua Siqueira Mendes","numero":"32\/50","zipcode":"66020-600","phone":"(91) 3224-4677","phone2":"","whatsapp":"","fax":"(91) 3222-7126","email":"maqbel@interconect.com.br","email2":"","latitude":"-1.45654020","longitude":"-48.50576980","tratores":"0","implementos":"0","pecas":"0"},{"id":"52","Codigo":"541","title":"MAQBRASIL MAQ. E EQUIPAMENTOS LTDA. - ME","country":"Brasil","state":"PA","city":"Bel\u00e9m","address":"Rua Magno - Bairro Montese","numero":"1504","zipcode":"66077-375","phone":"(91) 3276-6298","phone2":"","whatsapp":"","fax":"(91) 3276-6298","email":"maqbrasil_pa@yahoo.com.br","email2":"","latitude":"-1.44914590","longitude":"-48.44698440","tratores":"0","implementos":"0","pecas":"0"},{"id":"53","Codigo":"542","title":"COSMO FERREIRA DE OLIVEIRA LTDA","country":"Brasil","state":"PA","city":"Bel\u00e9m","address":"Pra\u00e7a S\u00e3o Cristov\u00e3o - Marco","numero":"80","zipcode":"66613-840","phone":"(91) 3276-8845","phone2":"","whatsapp":"","fax":"(91) 4008-0950","email":"olimaquinas@oi.com.br","email2":"","latitude":"-1.42320100","longitude":"-48.45026810","tratores":"0","implementos":"0","pecas":"0"},{"id":"54","Codigo":"543","title":"LI COM\u00c9RCIO E SERVI\u00c7OS LTDA","country":"Brasil","state":"PA","city":"Bel\u00e9m","address":"Rua Dr. Malcher \u2013 Cidade Velha","numero":"09","zipcode":"66020-250","phone":"(91) 3355-9982","phone2":"","whatsapp":"","fax":"","email":"casmapel@globo.com","email2":"","latitude":"-1.45835400","longitude":"-48.50409320","tratores":"0","implementos":"0","pecas":"0"},{"id":"55","Codigo":"544","title":"\u00c1REA PORTU\u00c1RIA COM. DE PE\u00c7AS E MOTORES LTDA","country":"Brasil","state":"PA","city":"Bel\u00e9m","address":"Rua Do Arsenal - Loja 02 Ed. Antoni","numero":"919","zipcode":"66023-110","phone":"(91) 3086-1847","phone2":"","whatsapp":"","fax":"(91) 3223-7015","email":"areaportuarea@gmail.com","email2":"","latitude":"-1.46194990","longitude":"-48.50622070","tratores":"0","implementos":"0","pecas":"0"},{"id":"56","Codigo":"545","title":"CASMAPE CASTANHAL COMERCIO DE MAQUINAS E PECAS EIRELI","country":"Brasil","state":"PA","city":"Castanhal","address":"Av. Presidente Get\u00falio Vargas - Ianetama - Castanhal","numero":"3126","zipcode":"68745-000","phone":"(91) 3721-2943","phone2":"","whatsapp":"","fax":"(91) 3721-5437","email":"casmape@globo.com","email2":"","latitude":"-1.29278220","longitude":"-47.91440070","tratores":"0","implementos":"0","pecas":"0"},{"id":"57","Codigo":"546","title":"REIMAC REDEN\u00c7\u00c3O I M AGRICOLA LTDA","country":"Brasil","state":"PA","city":"Marab\u00e1","address":"Folha 29 - Quadra 21 - Nova Maraba","numero":"Lote 09-A","zipcode":"68506-560","phone":"(94) 3322-3838","phone2":"","whatsapp":"","fax":"(94) 3322-3575","email":"reimaqpecas@skorpionet.com.br","email2":"","latitude":"-5.33206280","longitude":"-49.08591370","tratores":"0","implementos":"0","pecas":"0"},{"id":"58","Codigo":"547","title":"AGRIPE\u00c7AS LTDA","country":"Brasil","state":"PA","city":"Marab\u00e1","address":"Rua A, Q 06 Km 07","numero":"Lote 08","zipcode":"68504-000","phone":"(94) 2101-2250","phone2":"","whatsapp":"","fax":"(94)2101-2250","email":"agripecas_agr@hotmail.com","email2":"","latitude":"-5.34512050","longitude":"-49.07812080","tratores":"0","implementos":"0","pecas":"0"},{"id":"59","Codigo":"548","title":"AGR\u00cdCOLA IMPLEMENTOS LTDA","country":"Brasil","state":"PA","city":"Marab\u00e1","address":"Folha 29 - Quadra 31 - Lotes 1013 S\/n - Nova Maraba","numero":"","zipcode":"68508-970","phone":"(94) 99177-9199","phone2":"","whatsapp":"","fax":"","email":"agricolamba@outlook.com","email2":"","latitude":"-5.34727450","longitude":"-49.08052730","tratores":"0","implementos":"0","pecas":"0"},{"id":"60","Codigo":"549","title":"MOTOBEL MOTORES DE BELEM LTDA. (2)","country":"Brasil","state":"PA","city":"Marab\u00e1","address":"Rod. Transamaz\u00f4nica, Km 1 Aeroporto","numero":"3215","zipcode":"68500-000","phone":"(94) 3324-1767","phone2":"","whatsapp":"","fax":"(94) 3324-1150","email":"maraba@motobel.com.br","email2":"","latitude":"-5.36992000","longitude":"-49.19251000","tratores":"0","implementos":"0","pecas":"0"},{"id":"61","Codigo":"552","title":"JESSICA MOTO SERRA EQUIP. AGR\u00cdCOLAS LTDA","country":"Brasil","state":"PA","city":"Parauapebas","address":"Rua 15 - Quadra 59","numero":"59","zipcode":"68515-000","phone":"(94) 3346-1365","phone2":"","whatsapp":"","fax":"(94) 3346-9744","email":"jm.ltda@yahoo.com.br","email2":"","latitude":"-6.06820160","longitude":"-49.90416960","tratores":"0","implementos":"0","pecas":"0"},{"id":"62","Codigo":"553","title":"MOTOBRAS MOTORES LTDA","country":"Brasil","state":"PA","city":"Reden\u00e7\u00e3o","address":"Av. Min. Osmar Tompson Filho - Entroncamento","numero":"32","zipcode":"68552-140","phone":"(94) 3424-1337","phone2":"","whatsapp":"","fax":"(94) 3424-1270","email":"motobras@jc.net.br","email2":"","latitude":"-8.03792980","longitude":"-50.02489840","tratores":"0","implementos":"0","pecas":"0"},{"id":"63","Codigo":"556","title":"MOTOBEL MOTORES DE BELEM LTDA. (3)","country":"Brasil","state":"PA","city":"Uraim-paragominas","address":"Av. Pres. Vargas, S\/n Quadra R Lote 6-c","numero":"","zipcode":"68625-130","phone":"(91) 3729-3339","phone2":"","whatsapp":"","fax":"(91) 3729-3099","email":"paragomi@motobel.com.br","email2":"","latitude":"-2.98934070","longitude":"-47.40123160","tratores":"0","implementos":"0","pecas":"0"},{"id":"64","Codigo":"557","title":"AGRIMAQ COM. DE MAQ. AGR. LTDA. (01)","country":"Brasil","state":"PR","city":"Araucaria","address":"Rod. Br. 476 Km 20 - Faz. Velha","numero":"","zipcode":"83707-440","phone":"(41) 3642-3676","phone2":"","whatsapp":"","fax":"(41) 3642-3676","email":"agrimaq.araucaria@hotmail.com","email2":"","latitude":"-25.59300000","longitude":"-49.40481087","tratores":"0","implementos":"0","pecas":"0"},{"id":"65","Codigo":"558","title":"PORTAL MOTORES EQUIP. MAQUINAS E PE\u00c7AS LTDA","country":"Brasil","state":"PR","city":"Curitiba","address":"Rua Thomas Edison - Bairro Prado Velho","numero":"140","zipcode":"80215-260","phone":"(41) 3042-3409","phone2":"","whatsapp":"","fax":"","email":"portalmaquinas1@hotmail.com","email2":"","latitude":"-25.42448999","longitude":"-49.27300000","tratores":"0","implementos":"0","pecas":"0"},{"id":"66","Codigo":"559","title":"AGRO PEC FOZ DO IGUACU LTDA","country":"Brasil","state":"PR","city":"Foz Do Igua\u00e7u","address":"Av. Republica Argentina - Centro","numero":"1616","zipcode":"85852-090","phone":"(45) 3572-4884","phone2":"","whatsapp":"","fax":"(45) 3572-4884","email":"marcelo-agrofoz@hotmail.com","email2":"","latitude":"-25.54709999","longitude":"-54.58800000","tratores":"0","implementos":"0","pecas":"0"},{"id":"67","Codigo":"561","title":"CACOL- AGRIC. COML. LONDRINA LTDA","country":"Brasil","state":"PR","city":"Londrina","address":"Rua Messias Wilmar De Souza","numero":"68","zipcode":"86025-190","phone":"(43) 3329-0909","phone2":"","whatsapp":"","fax":"(43) 3337-4084","email":"cacol@cacol.com.br","email2":"","latitude":"-23.30693999","longitude":"-51.15966803","tratores":"0","implementos":"0","pecas":"0"},{"id":"68","Codigo":"563","title":"C S NARIMATSU & A A DOS SANTOS ME","country":"Brasil","state":"PR","city":"Maring\u00e1","address":"Av. Brasil 6328 ","numero":"Zona 4","zipcode":"87015-280","phone":"(44) 3028-3619","phone2":"","whatsapp":"","fax":"(44) 3028-3619","email":"ciamag-mga@wnet.com.br","email2":"","latitude":"-23.42446120","longitude":"-51.95943620","tratores":"0","implementos":"0","pecas":"0"},{"id":"69","Codigo":"568","title":"PULVETEC MAQUINAS AGRICOLAS LTDA","country":"Brasil","state":"PE","city":"Petrolina","address":"Br 407 \u2013 Jardim S\u00e3o Paulo","numero":"320","zipcode":"56314-570","phone":"(87) 3867-9575","phone2":"","whatsapp":"","fax":"(87) 3867-9575","email":"pulvetec@uol.com.br","email2":"","latitude":"-9.36783200","longitude":"-40.54226500","tratores":"0","implementos":"0","pecas":"0"},{"id":"70","Codigo":"569","title":"GIL MAQ INDUSTRIA E COMERCIO LTDA","country":"Brasil","state":"PE","city":"Recife","address":"Estrada Dos Remedios","numero":"1341","zipcode":"50750-000","phone":"(81) 2102-3633","phone2":"","whatsapp":"","fax":"(81) 2102-3633","email":"gilmaq@gilmaq.com.br","email2":"","latitude":"-8.06814000","longitude":"-34.90840000","tratores":"0","implementos":"0","pecas":"0"},{"id":"71","Codigo":"570","title":"IRRIMAQUINAS - IRRIGA\u00c7\u00c3O E M\u00c1QUINAS LTDA","country":"Brasil","state":"PI","city":"Floriano","address":"Rua Alfredo Estrela - Centro","numero":"338","zipcode":"64800-000","phone":"(89) 3521-2830","phone2":"","whatsapp":"","fax":"(89) 3521-2830","email":"irrimaquinas@yahoo.com.br","email2":"","latitude":"-6.76582500","longitude":"-43.02172600","tratores":"0","implementos":"0","pecas":"0"},{"id":"72","Codigo":"571","title":"M. CARVALHO & CIA LTDA","country":"Brasil","state":"PI","city":"Teresina","address":"Rua Rui Barbosa - Centro \/ Norte","numero":"1257","zipcode":"64000-090","phone":"(86) 3232-4090","phone2":"","whatsapp":"","fax":"(86) 3232-4090","email":"vendas@mcarvalho.com.br","email2":"cleidiane@mcarvalho.com.br","latitude":"-5.09201080","longitude":"-42.80375970","tratores":"0","implementos":"0","pecas":"0"},{"id":"73","Codigo":"572","title":"A. SAMPAIO E CIA LTDA","country":"Brasil","state":"PI","city":"Teresina","address":"Rua Anfrisio Lob\u00e3o - Bairro Jockey Clube","numero":"1869","zipcode":"64049-280","phone":"(86) 3233-1153","phone2":"","whatsapp":"","fax":"(86) 3233-3525","email":"sampaio.cia@uol.com.br","email2":"","latitude":"-5.07269170","longitude":"-42.78706230","tratores":"0","implementos":"0","pecas":"0"},{"id":"74","Codigo":"573","title":"A. J RODRIGUES NETO","country":"Brasil","state":"RJ","city":"Campos Dos Goytacazes","address":"Av. Presidente Vargas","numero":"217","zipcode":"28055-293","phone":"(22) 2731-7911","phone2":"","whatsapp":"","fax":"","email":"anisio.ajemaq@ig.com.br","email2":"","latitude":"-21.76266820","longitude":"-41.31845010","tratores":"0","implementos":"0","pecas":"0"},{"id":"75","Codigo":"574","title":"ITAMAPE DE ITAPERUNA M\u00c1QUINAS E PE\u00c7AS LTDA","country":"Brasil","state":"RJ","city":"Itaperuna","address":"Av. Deputado Cory D Campos Pillar Filho","numero":"1562","zipcode":"28300-000","phone":"(22) 3824-1536","phone2":"","whatsapp":"","fax":"(22) 3824-1536","email":"ronaldoitamape@yahoo.com.br","email2":"","latitude":"-21.20015780","longitude":"-41.88030550","tratores":"0","implementos":"0","pecas":"0"},{"id":"76","Codigo":"576","title":"TRATOR RETRO COM. SERV. E LOC. MAQS. E CAMIH\u00d5ES LTDA. ME","country":"Brasil","state":"RJ","city":"Tangu\u00e1","address":"Rod. Br 101 Km 280 Lote 04 Quadra 01 \u2013 Duques","numero":"","zipcode":"24890-000","phone":"(21) 2639-8920","phone2":"","whatsapp":"","fax":"","email":"tratorretro2@gmail.com","email2":"","latitude":"-22.74280380","longitude":"-42.72059940","tratores":"0","implementos":"0","pecas":"0"},{"id":"77","Codigo":"577","title":"LAQUEIROZ COM\u00c9RCIO DE M\u00c1QUINAS AGR\u00cdCOLAS","country":"Brasil","state":"RJ","city":"Teres\u00f3polis","address":"Estrada Teres\u00f3polis Friburgo Km 6,5 -  Albuquerque","numero":"6965","zipcode":"25976-440","phone":"(21) 2743-0473","phone2":"(21) 2742-2884","whatsapp":"","fax":"21-2743 0473 | 2742 2884","email":"leonardo@agroqueiroz.com.br","email2":"","latitude":"-22.37660470","longitude":"-42.93258940","tratores":"0","implementos":"0","pecas":"0"},{"id":"78","Codigo":"582","title":"TRAMAK - TRATORES E MAQUINAS KAFER L","country":"Brasil","state":"RS","city":"Erechim","address":"Rua Delmar Luiz Rigoni - Bairro Aeroporto","numero":"55","zipcode":"99700-000","phone":"(54) 3522-1814","phone2":"","whatsapp":"","fax":"(54) 3522-1814","email":"kafer.rs@st.com.br","email2":"","latitude":"-27.65719000","longitude":"-52.27670000","tratores":"0","implementos":"0","pecas":"0"},{"id":"79","Codigo":"584","title":"ITAPEVA COMERCIAL AGR\u00cdCOLA LTDA","country":"Brasil","state":"RS","city":"Os\u00f3rio","address":"Rs -030- Km 86 - Bairro Entroncamento","numero":"90","zipcode":"95520-000","phone":"(51) 3663-6577","phone2":"","whatsapp":"","fax":"(51) 3663-1636","email":"itapeva@terra.com.br","email2":"","latitude":"-29.89289000","longitude":"-50.26133000","tratores":"0","implementos":"0","pecas":"0"},{"id":"80","Codigo":"585","title":"BERGMANN MAQS. E IMPLS. AGTRIC. LTDA","country":"Brasil","state":"RS","city":"Pelotas","address":"Rua Bar\u00e3o De Santa Tecla","numero":"517","zipcode":"96010-140","phone":"(53) 3227-7373","phone2":"","whatsapp":"","fax":"(53) 3227-7373","email":"bergmann.maquinas@terra.com.br","email2":"","latitude":"-31.77209001","longitude":"-52.34310587","tratores":"0","implementos":"0","pecas":"0"},{"id":"81","Codigo":"587","title":"BERGMANN & CIA. LTDA","country":"Brasil","state":"RS","city":"S. Loren\u00e7o Do Sul","address":"Av. Cel. Nono Centeno","numero":"375","zipcode":"96170-000","phone":"(53) 3251-3088","phone2":"","whatsapp":"","fax":"(53) 3251-1451","email":"lula@bergmann-maquinas.com","email2":"","latitude":"-31.36482000","longitude":"-51.97800000","tratores":"0","implementos":"0","pecas":"0"},{"id":"82","Codigo":"588","title":"LOTHAR KRAUSE & CIA LTDA","country":"Brasil","state":"RS","city":"Santa Cruz Do Sul","address":"Av Independencia - Centro","numero":"168","zipcode":"96815-000","phone":"(51) 3713-2656","phone2":"","whatsapp":"","fax":"(51) 713-3495","email":"bianca.vanzin@lkrause.com.br","email2":"credito@lkrause.com.br","latitude":"20.12790140","longitude":"40.69323750","tratores":"0","implementos":"0","pecas":"0"},{"id":"83","Codigo":"590","title":"HERMANNS INSUMOS E EQUIPAMENTOS LTDA","country":"Brasil","state":"RS","city":"Santa Rosa","address":"Av, Inhacora - Centro","numero":"119 302","zipcode":"98500-000","phone":"(55) 3512-1985","phone2":"","whatsapp":"","fax":"(55) 3512-1985","email":"hermanns@hermanns.com.br","email2":"","latitude":"-27.37082000","longitude":"-53.75800000","tratores":"0","implementos":"0","pecas":"0"},{"id":"84","Codigo":"591","title":"F. G. ASSIT\u00caNCIA T\u00c9CNICA EM AGROPECU\u00c1RIA LTDA","country":"Brasil","state":"RS","city":"Santo Expedito Do Sul","address":"Av. Jos\u00e9 Pilonetto - Centro","numero":"830 B","zipcode":"99895-000","phone":"(54) 3396-1147","phone2":"","whatsapp":"","fax":"(54) 3396-1147","email":"gelson@fgme.com.br","email2":"","latitude":"-27.90793140","longitude":"-51.64385710","tratores":"0","implementos":"0","pecas":"0"},{"id":"85","Codigo":"593","title":"JOEL FRAGA SHEWFFER & CIA. LTDA","country":"Brasil","state":"RS","city":"Torres","address":"Av. Castelo Branco","numero":"521","zipcode":"95560-000","phone":"(51) 3664-3584","phone2":"","whatsapp":"","fax":"(51) 3626-1769","email":"micromaq@terra.com.br","email2":"","latitude":"-29.33482000","longitude":"-49.72700000","tratores":"0","implementos":"0","pecas":"0"},{"id":"86","Codigo":"595","title":"OLIVEIRA & BRITO LTDA","country":"Brasil","state":"RR","city":"Boa Vista","address":"Av. Ville Roy - S\u00e3o Vicente","numero":"7322","zipcode":"69303-000","phone":"(95) 3624-5485","phone2":"","whatsapp":"","fax":"(95) 3624-1082","email":"comam_rr@yahoo.com.br","email2":"","latitude":"2.83132000","longitude":"-60.66386000","tratores":"0","implementos":"0","pecas":"0"},{"id":"87","Codigo":"597","title":"FERPAM COM\u00c9RCIO DE BORRACHAS LTDA","country":"Brasil","state":"TO","city":"Araguaia","address":"R. Marechal Deodoro \u2013 Vila Ros\u00e1rio","numero":"26","zipcode":"77823-010","phone":"(63) 3411-8400","phone2":"","whatsapp":"","fax":"","email":"estev\u00e3o@ferpam.com.br","email2":"","latitude":"-9.71160900","longitude":"-35.89583000","tratores":"0","implementos":"0","pecas":"0"},{"id":"88","Codigo":"598","title":"IMPLEMENTOS AGRICOLAS OLIVEIRA LTDA","country":"Brasil","state":"RO","city":"Alta Floresta Do Oeste","address":"Av. Brasil","numero":"4390","zipcode":"78994-000","phone":"(69) 3641-2282","phone2":"","whatsapp":"","fax":"(69) 3641-2282","email":"motomotores@hotmail.com","email2":"","latitude":"-11.92917000","longitude":"-61.99382000","tratores":"0","implementos":"0","pecas":"0"},{"id":"89","Codigo":"599","title":"CACOAL MOTO SERRAS LTDA","country":"Brasil","state":"RO","city":"Cacoal","address":"Av. Castelo Branco","numero":"19209","zipcode":"78975-000","phone":"(69) 3441-3473","phone2":"","whatsapp":"","fax":"(69) 3441-2272","email":"cmserras@nettravel.com.br","email2":"","latitude":"-11.43405000","longitude":"-61.46202000","tratores":"0","implementos":"0","pecas":"0"},{"id":"90","Codigo":"600","title":"C.V. M\u00c1QUINAS E EQUIPAMENTOS EIRELLI - EPP","country":"Brasil","state":"RO","city":"Guajar\u00e1 Mirim","address":"Av. Presidente Dutra","numero":"393 A","zipcode":"76850-000","phone":"(69) 3541-2223","phone2":"","whatsapp":"","fax":"","email":"guajara@implemaq.com.br","email2":"","latitude":"-10.78932100","longitude":"-65.33010490","tratores":"0","implementos":"0","pecas":"0"},{"id":"91","Codigo":"601","title":"AGROMOTORES MAQUINAS E IMPLS. LTDA. (FILIAL)","country":"Brasil","state":"RO","city":"Guajar\u00e1 Mirim","address":"Av. Dr. Mendon\u00e7a Lima \u2013 Centro","numero":"39","zipcode":"78957-000","phone":"(69) 3541-7239","phone2":"","whatsapp":"","fax":"","email":"","email2":"","latitude":"-10.78932100","longitude":"-65.33010490","tratores":"0","implementos":"0","pecas":"0"},{"id":"92","Codigo":"602","title":"HILGERT & CIA LTDA","country":"Brasil","state":"RO","city":"Ji-parana","address":"Av Marechal Rondon","numero":"1327 - S2","zipcode":"78961-390","phone":"(69) 3411-5500","phone2":"","whatsapp":"","fax":"","email":"vendas@implemaq.com.br","email2":"","latitude":"-10.87762200","longitude":"-61.94649200","tratores":"0","implementos":"0","pecas":"0"},{"id":"93","Codigo":"603","title":"AGROMOTORES MAQUINAS E IMPLEM. LTDA","country":"Brasil","state":"RO","city":"Porto Velho","address":"Rua Almirante Barroso, Bairro N. S. Das Gra\u00e7as","numero":"1528","zipcode":"78915-020","phone":"(69) 3211-3400","phone2":"","whatsapp":"","fax":"(69) 3211-3402","email":"agromotores@agromotores.com.br","email2":"","latitude":"-8.77130000","longitude":"-63.88185000","tratores":"0","implementos":"0","pecas":"0"},{"id":"94","Codigo":"604","title":"TRATORDICO COM. E REPRESENTA\u00c7\u00d5ES LTDA","country":"Brasil","state":"RO","city":"Vilhena","address":"Av. Marechal Rondon","numero":"3472","zipcode":"76980-000","phone":"(69) 3322-1311","phone2":"","whatsapp":"","fax":"(69) 3322-1311","email":"compras@tratordico.com.br","email2":"","latitude":"-12.74578000","longitude":"-60.11326000","tratores":"0","implementos":"0","pecas":"0"},{"id":"95","Codigo":"605","title":"ACH COM\u00c9RCIO IMPORTA\u00c7\u00c3O E EXPORTA\u00c7\u00c3O LTDA","country":"Brasil","state":"RO","city":"Guajar\u00e1 Mirim","address":"Av. Presidente Dutra","numero":"393 A","zipcode":"76850-000","phone":"(69) 3541-6149","phone2":"","whatsapp":"","fax":"","email":"ach-ach@bol.com.br","email2":"","latitude":"-10.78932100","longitude":"-65.33010490","tratores":"0","implementos":"0","pecas":"0"},{"id":"96","Codigo":"606","title":"OFIC E COM A.PECAS S. CRISTOVAO LTDA","country":"Brasil","state":"SC","city":"Alfredo Wagner","address":"Rua Do Comercio","numero":"205","zipcode":"88450-000","phone":"(48) 3276-1148","phone2":"","whatsapp":"","fax":"(48) 3276-1148","email":"oficina.cristovao@hotmail.com","email2":"","latitude":"-27.70059600","longitude":"-49.32783130","tratores":"0","implementos":"0","pecas":"0"},{"id":"97","Codigo":"607","title":"AGRINORTE COM\u00c9RCIO DE M\u00c1QUINAS LTDA","country":"Brasil","state":"SC","city":"Indaial","address":"Br 470 Km 71 - Bairro Rio Morto","numero":"1555","zipcode":"89130-000","phone":"(47) 3394-5920","phone2":"","whatsapp":"","fax":"(47) 3394-5920","email":"agrinorte@brturbo.com.br","email2":"","latitude":"-26.89997000","longitude":"-49.23386000","tratores":"0","implementos":"0","pecas":"0"},{"id":"98","Codigo":"608","title":"AGROMAR REPAROS DE MOTORES LTDA","country":"Brasil","state":"SC","city":"Itajai","address":"Rua Carlos Seara - Vila Operaria","numero":"554","zipcode":"88303-200","phone":"(47) 3348-2851","phone2":"","whatsapp":"","fax":"(47) 3349-7638","email":"agromar1@terra.com.br","email2":"","latitude":"-26.90539000","longitude":"-48.66492688","tratores":"0","implementos":"0","pecas":"0"},{"id":"99","Codigo":"609","title":"SILVA COM. DE TRATORES LTDA","country":"Brasil","state":"SC","city":"Ituporanga","address":"Rua Pref. Virgilio Scheller -B. Sto Antonio","numero":"599","zipcode":"88400-000","phone":"(47) 3533-3100","phone2":"","whatsapp":"","fax":"(47) 3533-3100","email":"silvatratores@silvatratores.com.br","email2":"","latitude":"-27.41567780","longitude":"-49.60338400","tratores":"0","implementos":"0","pecas":"0"},{"id":"100","Codigo":"611","title":"J.BOITAS COM.MAQ.E EQ.E IMPL.AGRICS.","country":"Brasil","state":"SC","city":"Jos\u00e9 Boiteux","address":"Av. 26 De Abril, S\/nr - Centro","numero":"","zipcode":"89145-000","phone":"(47) 3352-7015","phone2":"","whatsapp":"","fax":"(47) 3352-7015","email":"jboitas@jboitas.com.br","email2":"","latitude":"-26.95706430","longitude":"-49.62911450","tratores":"0","implementos":"0","pecas":"0"},{"id":"101","Codigo":"612","title":"AGROFER AGRICOLA FERRARI LTDA","country":"Brasil","state":"SC","city":"S\u00e3o Miguel Do Oeste","address":"Rua Guanabara - Centro","numero":"805","zipcode":"89900-000","phone":"(49) 3622-3939 ","phone2":"","whatsapp":"","fax":"","email":"agrofer@agrofersmo.com.br","email2":"","latitude":"-26.73450353","longitude":"-53.51992696","tratores":"0","implementos":"0","pecas":"0"},{"id":"102","Codigo":"613","title":"MASSARANDUBA TRATORES LTDA ME","country":"Brasil","state":"SC","city":"Massaranduba","address":"Rua Adolfo Cardoso - Centro 1 Andar","numero":"913","zipcode":"89108-000","phone":"(47) 3379-1277","phone2":"","whatsapp":"","fax":"(47) 3379-1277","email":"massba.autopecas@hotmail.com","email2":"","latitude":"-26.61195340","longitude":"-49.00757140","tratores":"0","implementos":"0","pecas":"0"},{"id":"103","Codigo":"614","title":"AGROMAQUI AGROP. E MAQUINAS LTDA","country":"Brasil","state":"SC","city":"Rio Do Sul","address":"Rua 15 De Novembro - Bairro Laranjeiras","numero":"851","zipcode":"89160-000","phone":"(47) 3521-1866","phone2":"","whatsapp":"","fax":"(47) 3521-1866","email":"agromaqui1@yahoo.com.br","email2":"","latitude":"-27.21527000","longitude":"-49.63901000","tratores":"0","implementos":"0","pecas":"0"},{"id":"104","Codigo":"617","title":"SEMAG-COMERCIAL AGRICOLA LTDA","country":"Brasil","state":"SP","city":"Cap\u00e3o Bonito","address":"Av.placido Batista Da Silveira - Centro","numero":"339","zipcode":"18305-475","phone":"(15) 3543-1112","phone2":"","whatsapp":"","fax":"(15) 3543-1112","email":"hissano@hotmail.com","email2":"","latitude":"-24.00216000","longitude":"-48.35026380","tratores":"0","implementos":"0","pecas":"0"},{"id":"105","Codigo":"618","title":"OTTOBONI MAQS. E IMPLS. AGRICS. LTDA","country":"Brasil","state":"SP","city":"Dracena","address":"Rua Jo\u00e3o Ottobon","numero":"187","zipcode":"17900-000","phone":"(18) 3821-8100","phone2":"","whatsapp":"","fax":"(18) 3821-1166","email":"ottoboni@ottoboni.agr.br","email2":"","latitude":"-21.49082890","longitude":"-51.53842580","tratores":"0","implementos":"0","pecas":"0"},{"id":"106","Codigo":"619","title":"SAMI M\u00c1QUINAS","country":"Brasil","state":"SP","city":"Franca","address":"Av. Wilson Sabio De Mello - Bairro Polo Industrial S\u00e3o Bernardo","numero":"2141","zipcode":"14406-052","phone":"(16) 3713-9600","phone2":"","whatsapp":"","fax":"(16) 3713-9600","email":"comercial@samimaquinas.com.br","email2":"","latitude":"-20.54772060","longitude":"-47.43700930","tratores":"0","implementos":"0","pecas":"0"},{"id":"107","Codigo":"620","title":"AGRO KAYAMA COM. PROD. AGR. LTDA - EPP","country":"Brasil","state":"SP","city":"Ibiuna","address":"Rua Francisco De Barros","numero":"36","zipcode":"18150-000","phone":"(15) 3241-1244","phone2":"","whatsapp":"(15) 99699-7861","fax":"","email":"mailto:agrokayama@agrokayama.com.br","email2":"","latitude":"-23.66010080","longitude":"-47.22348900","tratores":"0","implementos":"0","pecas":"0"},{"id":"108","Codigo":"621","title":"JIMA - INDUSTRIA E COMERCIO LTDA","country":"Brasil","state":"SP","city":"Jales","address":"Av. Joao Amadeu","numero":"3075","zipcode":"15700-000","phone":"(17) 3624-4500","phone2":"","whatsapp":"","fax":"(17) 3624-4501","email":"jima.jima@uol.com.br","email2":"","latitude":"-20.26938000","longitude":"-50.54774000","tratores":"0","implementos":"0","pecas":"0"},{"id":"109","Codigo":"622","title":"IMPLEMENTOS YAMASHITA LTDA","country":"Brasil","state":"SP","city":"Jundiai","address":"Cx.postal 348 Av. Prof\u00aa. Maria Do Carmo G. Pellegrine","numero":"360","zipcode":"13209-500","phone":"(11) 4589-1866","phone2":"","whatsapp":"","fax":"(11) 4589-1866","email":"yamashita@yamashitaonline.com.br","email2":"","latitude":"-23.17855160","longitude":"-46.90846020","tratores":"0","implementos":"0","pecas":"0"},{"id":"110","Codigo":"623","title":"SEPAM \u2013 SERV. EQUIP. PROD. P\/ AGRICULTURA E MAQUINAS LTDA","country":"Brasil","state":"SP","city":"S\u00e3o Carlos","address":"R. Arthur Rodrigues De Castro, Jd. S\u00e3o Paulo","numero":"90","zipcode":"13486-171","phone":"(19) 3441-0337","phone2":"","whatsapp":"","fax":"","email":"sepam@sepamtratores.com.br","email2":"","latitude":"-22.55911060","longitude":"-47.39151620","tratores":"0","implementos":"0","pecas":"0"},{"id":"111","Codigo":"624","title":"CIAMAR COMERCIAL LTDA","country":"Brasil","state":"SP","city":"Marilia","address":"Rua Espanha","numero":"193","zipcode":"17519-780","phone":"(14) 3401-0333","phone2":"","whatsapp":"","fax":"(14) 3401-0339","email":"ciamar@ciamartratores.com.br","email2":"","latitude":"-22.21758460","longitude":"-49.95052910","tratores":"0","implementos":"0","pecas":"0"},{"id":"112","Codigo":"625","title":"CORUJAO COM.REP.DE MAQS.AGRICS.LTDA","country":"Brasil","state":"SP","city":"Mococa","address":"Rodovia Sp 340, Km 271,6","numero":"","zipcode":"13737-627","phone":"(19) 3656-2443","phone2":"","whatsapp":"","fax":"(19) 3656-1102","email":"ricardo@corujaotratores.com.br","email2":"","latitude":"-21.51013940","longitude":"-47.02185500","tratores":"1","implementos":"1","pecas":"0"},{"id":"113","Codigo":"626","title":"HIRAMAQ PE\u00c7AS COML. AGR\u00cdCOLA LTDA","country":"Brasil","state":"SP","city":"Biritiba-mirim","address":"Av. Ferdinando Jungers","numero":"170","zipcode":"08940-000","phone":"(11) 4692-1009","phone2":"","whatsapp":"","fax":"","email":"katia@hiramaq.com.br","email2":"","latitude":"-23.57282000","longitude":"-46.03900000","tratores":"0","implementos":"0","pecas":"0"},{"id":"114","Codigo":"627","title":"ROMA TRATORES IMPLS. E PECAS LTDA","country":"Brasil","state":"SP","city":"Presidente Prudente","address":"Av.brasil","numero":"2830","zipcode":"19013-002","phone":"(18) 3223-1100","phone2":"","whatsapp":"","fax":"","email":"romatrat@stetnet.com.br","email2":"","latitude":"-22.12381700","longitude":"-51.39225100","tratores":"0","implementos":"0","pecas":"0"},{"id":"115","Codigo":"628","title":"SEPAM \u2013 SERV. EQUIP. PROD. P\/ AGRICULTURA E MAQUINAS LTDA","country":"Brasil","state":"SP","city":"S\u00e3o Carlos","address":"R. Arthur Rodrigues De Castro, Jd. S\u00e3o Paulo","numero":"90","zipcode":"13570-140","phone":"(16) 3368-5011","phone2":"","whatsapp":"","fax":"(16) 3368-5011","email":"sepan@terra.com.br","email2":"","latitude":"-22.03062640","longitude":"-47.87507090","tratores":"0","implementos":"0","pecas":"0"},{"id":"116","Codigo":"629","title":"AGRAUPE DISTRIBUIDORA DE PECAS LTDA","country":"Brasil","state":"SP","city":"S\u00e3o Paulo","address":"Rua Brigadeiro Galvao","numero":"851","zipcode":"01151-000","phone":"(11) 3595-7977","phone2":"","whatsapp":"","fax":"(11) 3828-7976","email":"agraupe@agraupe.com","email2":"","latitude":"-23.55376000","longitude":"-46.64228323","tratores":"0","implementos":"0","pecas":"0"},{"id":"117","Codigo":"631","title":"COMERCIAL MOTO JATO LTDA","country":"Brasil","state":"SP","city":"S\u00e3o Paulo","address":"Rua Aroaba, 105 \/ 111","numero":"","zipcode":"05315-020","phone":"(11) 3837-9088","phone2":"","whatsapp":"","fax":"(11) 3832-4087","email":"cintia@motojato.com.br","email2":"adm@motojato.com.br","latitude":"-23.54800000","longitude":"-47.06296528","tratores":"0","implementos":"0","pecas":"0"},{"id":"118","Codigo":"632","title":"KINOSHITA & UEDA LTDA","country":"Brasil","state":"SP","city":"Sorocaba","address":"Av. Dr. Armando Panunzio","numero":"1120","zipcode":"18050-000","phone":"(15) 3221-2774","phone2":"","whatsapp":"","fax":"(15) 3221-3280","email":"kinoshita@kinoshita.com.br","email2":"","latitude":"-23.52308900","longitude":"-47.49103650","tratores":"0","implementos":"0","pecas":"0"},{"id":"119","Codigo":"633","title":"MIZUTA HISASHI M\u00c1QUINAS E FERRAMENTAS LTDA","country":"Brasil","state":"SP","city":"Taubat\u00e9","address":"Av. Independencia","numero":"159","zipcode":"12031-001","phone":"(12) 3681-2788","phone2":"","whatsapp":"","fax":"(12) 3681-2788","email":"sjc@mizuta.com.br","email2":"","latitude":"-23.03752790","longitude":"-45.57916120","tratores":"0","implementos":"0","pecas":"0"},{"id":"120","Codigo":"634","title":"HTM MAQUINARIAS","country":"Argentina","state":"","city":"Buenos Aires","address":"Ruta Panamericana -km 50.700 - Escobar","numero":"","zipcode":"1625","phone":"(54-03488) 420-415","phone2":"","whatsapp":"","fax":"(54-03488) 420-415","email":"","email2":"","latitude":null,"longitude":null,"tratores":"0","implementos":"0","pecas":"0"},{"id":"121","Codigo":"635","title":"PETELIN MAQUINARIAS","country":"Bol\u00edvia","state":"","city":"Entre Rios","address":"Av. Dr. Casillas - Chajari","numero":"1175","zipcode":"3228","phone":"(03456) 420-115","phone2":"","whatsapp":"","fax":"(03456) 420-115","email":"petelinmaquinarias@xinet.com.ar","email2":"","latitude":null,"longitude":null,"tratores":"0","implementos":"0","pecas":"0"},{"id":"122","Codigo":"636","title":"PEDRO S. VILLEGAS S.A","country":"Bol\u00edvia","state":"","city":"Rio Negro","address":"Tronador 1280 - Gral. Roca","numero":"","zipcode":"8332","phone":"(02941) 432-899","phone2":"","whatsapp":"","fax":"(02941) 432-899","email":"psvroca@infovia.com.ar","email2":"","latitude":null,"longitude":null,"tratores":"0","implementos":"0","pecas":"0"},{"id":"123","Codigo":"637","title":"DISTRIBUIDORA SAN RAFAEL","country":"Chile","state":"","city":"Cochabamba","address":"Calle 25 De Mayo, 580","numero":"","zipcode":"","phone":"(591-4) 425-026","phone2":"","whatsapp":"","fax":"(591-4) 411-524","email":"distribuidora_sanrafael@yahoo.com.ar","email2":"","latitude":null,"longitude":null,"tratores":"0","implementos":"0","pecas":"0"},{"id":"124","Codigo":"638","title":"CASA TOYOSATO","country":"Chile","state":"","city":"Santa Cruz De La Sierra","address":"Av. Cristobal De Mendoza, 1235 - Entre Av. Alema\u00f1a Y Av. Ben","numero":"","zipcode":"","phone":"(5913) 342-2221","phone2":"","whatsapp":"","fax":"(5913) 342-2066","email":"toyosato@cotas.com.bo","email2":"","latitude":null,"longitude":null,"tratores":"0","implementos":"0","pecas":"0"},{"id":"125","Codigo":"639","title":"SARGENT AGR\u00cdCOLA LTDA","country":"Equador","state":"","city":"Santiago","address":"Av. Presidente Bulnes 205","numero":"","zipcode":"","phone":"(56-2) 5103300","phone2":"","whatsapp":"","fax":"(56-2) 6983989","email":"agricola@sargent.biz","email2":"","latitude":null,"longitude":null,"tratores":"0","implementos":"0","pecas":"0"},{"id":"126","Codigo":"640","title":"ARTHUR FRIED C.A.","country":"Peru","state":"","city":"Quito","address":"Av. America, N36-169 Y Naciones Unydas","numero":"","zipcode":"","phone":"(593-4) 2282-556","phone2":"","whatsapp":"","fax":"(593-4) 2282-696","email":"fried@access.net.ec","email2":"","latitude":null,"longitude":null,"tratores":"0","implementos":"0","pecas":"0"},{"id":"127","Codigo":"641","title":"ARTHUR FRIED C.A.","country":"Peru","state":"","city":"Quito","address":"Av. America, N36-169 Y Naciones Unydas","numero":"","zipcode":"","phone":"(593-2) 2446-533","phone2":"","whatsapp":"","fax":"(593-2) 2463-854","email":"fried@access.net.ec","email2":"","latitude":null,"longitude":null,"tratores":"0","implementos":"0","pecas":"0"},{"id":"128","Codigo":"642","title":"FARN SUPPLIES LTDA","country":"Guiana","state":"","city":"Georgetown","address":"159 Durabana Square \/ Lamaha Gardens","numero":"","zipcode":"","phone":"(59-2) 270-450","phone2":"","whatsapp":"","fax":"(59-2) 270-450","email":"farmsup@telsnet.net","email2":"","latitude":null,"longitude":null,"tratores":"0","implementos":"0","pecas":"0"},{"id":"129","Codigo":"643","title":"MACHDEAL MATERIALES & EQUIPS","country":"M\u00e9xico","state":"","city":"Cayenne","address":"12, Lotissement Dufounier Pk 2,5 - Route De Baduel","numero":"","zipcode":"","phone":"(59-4) 296-600","phone2":"","whatsapp":"","fax":"(59-4) 296-600","email":"purchase2@machdeal.gf","email2":"","latitude":null,"longitude":null,"tratores":"0","implementos":"0","pecas":"0"},{"id":"130","Codigo":"644","title":"SETAC S.R.L","country":"Uruguai","state":"","city":"Fernando De La Mora","address":"Ruta Mcal. Estigarribia, 1759 - Km 9","numero":"","zipcode":"2300","phone":"(595) 21 502-727","phone2":"","whatsapp":"","fax":"(595) 21 502-727","email":"fdo.comercial@setac.com.py","email2":"","latitude":null,"longitude":null,"tratores":"0","implementos":"0","pecas":"0"},{"id":"131","Codigo":"645","title":"KASAMATSU S.A.C.I","country":"Uruguai","state":"","city":"Asuncion","address":"Pr\u00f3ceres De Mayo, 130 - Esq. Iribas","numero":"","zipcode":"1209","phone":"(595-21) 211-567","phone2":"","whatsapp":"","fax":"(595-21) 211-409","email":"kasa@conexion.com.py","email2":"","latitude":null,"longitude":null,"tratores":"0","implementos":"0","pecas":"0"},{"id":"132","Codigo":"646","title":"SETAC S.R.L.","country":"Uruguai","state":"","city":"Santa Rita","address":"Ruta Vi - Km 210 - Fracci\u00f3n Bo. Si\u00f1uelo","numero":"","zipcode":"","phone":"(595) 986 122600","phone2":"(595) 983 123110","whatsapp":"","fax":"","email":"setac@setac.com.py","email2":"","latitude":null,"longitude":null,"tratores":"0","implementos":"0","pecas":"0"},{"id":"133","Codigo":"647","title":"SETAC S.R.L.","country":"Uruguai","state":"","city":"Santa Rita","address":"Ruta Vi - Km 210 - Fracci\u00f3n Bo. Si\u00f1uelo","numero":"","zipcode":"","phone":"(595) 673220163","phone2":"","whatsapp":"","fax":"","email":"rita.comercial@setac.com.py","email2":"","latitude":null,"longitude":null,"tratores":"0","implementos":"0","pecas":"0"},{"id":"134","Codigo":"648","title":"CHELIR S.A.","country":"Venezuela","state":"","city":"Montevideo","address":"Cuareim 1953","numero":"","zipcode":"","phone":"598 02 929 0708","phone2":"","whatsapp":"","fax":"","email":"chelir@chelir.com.uy","email2":"","latitude":null,"longitude":null,"tratores":"0","implementos":"0","pecas":"0"},{"id":"135","Codigo":"649","title":"AGRO INDUSTRIAL OCCIDENTE","country":"Col\u00f4mbia","state":"","city":"M\u00e9rida","address":"Avenida Paez N\u00ba 15 - 115 Via Aeropuerto - El Vigia","numero":"","zipcode":"4005","phone":"(58-261) 717-2345","phone2":"","whatsapp":"","fax":"(58-261) 731-4353","email":"maracaibo@agroindocca.com","email2":"","latitude":null,"longitude":null,"tratores":"0","implementos":"0","pecas":"0"},{"id":"136","Codigo":"650","title":"AGRO INDUSTRIAL OCCIDENTE","country":"Col\u00f4mbia","state":"","city":"M\u00e9rida","address":"Avenida Paez N\u00ba 15 - 115 Via Aeropuerto - El Vigia","numero":"","zipcode":"5145","phone":"(58-275) 881-2711","phone2":"","whatsapp":"","fax":"(58-275) 881-7898","email":"info@agroindocca.com","email2":"","latitude":null,"longitude":null,"tratores":"0","implementos":"0","pecas":"0"},{"id":"137","Codigo":"652","title":"MAQNELSON TRATORES E IMPLEMENTOS LTDA","country":"Brasil","state":"BA","city":"Feira De Santana","address":"Av. Presidente Dutra - Bairro Capuchinhos","numero":"1484","zipcode":"44076-130","phone":"(75) 2101-0444","phone2":"","whatsapp":"75-99822-8174","fax":"(75) 2101-0411","email":"maqnelson@uol.com.br","email2":"","latitude":"-12.25966260","longitude":"-38.94723740","tratores":"0","implementos":"0","pecas":"0"},{"id":"138","Codigo":"653","title":"COM\u00c9RCIO DE M\u00c1QUINAS AGR\u00cdCOLAS SIEBEL","country":"Brasil","state":"SC","city":"S\u00e3o Miguel Do Oeste","address":"Rua Xv De Novembro","numero":"1120","zipcode":"89900-000","phone":"(49) 3622-0414","phone2":"","whatsapp":"","fax":"49 3622 6265","email":"comasi@smo.com.br","email2":"","latitude":"-26.72989000","longitude":"-53.51141000","tratores":"0","implementos":"0","pecas":"0"},{"id":"139","Codigo":"657","title":"AUTO PE\u00c7AS MACHADO","country":"Brasil","state":"MT","city":"C\u00e1ceres","address":"R. General Os\u00f3rio - Bairro Santa Cruz","numero":"2335","zipcode":"78200-971","phone":"(65) 3223-6077","phone2":"","whatsapp":"","fax":"","email":"machadorolamentos@gmail.com","email2":"","latitude":"-16.09019000","longitude":"-57.68918000","tratores":"0","implementos":"0","pecas":"0"},{"id":"140","Codigo":"658","title":"SERVIRENTAL MAQUIN\u00c1RIAS S.A.S.","country":"Col\u00f4mbia","state":"","city":"Cartagena","address":"Av. Pedro De Heredia, Calle 32 # 19a -42 Local # 4","numero":"","zipcode":"","phone":"+ 57-5 6618484","phone2":"","whatsapp":"","fax":"","email":"gerencia@srmaq.com","email2":"","latitude":null,"longitude":null,"tratores":"0","implementos":"0","pecas":"0"},{"id":"141","Codigo":"659","title":"CONEX\u00c3O INSUMOS AGRICOLAS LTDA","country":"Brasil","state":"SC","city":"Ararangu\u00e1","address":"Rua Severino Jos\u00e9 De Souza - Cidade Alta","numero":"78","zipcode":"88900-000","phone":"(48) 3522-3040","phone2":"","whatsapp":"","fax":"","email":"suprimentos@agrimeta.com.br","email2":"","latitude":"-28.94512000","longitude":"-49.49127000","tratores":"0","implementos":"0","pecas":"0"},{"id":"142","Codigo":"660","title":"PICA PAU COM. DE MAQS. E IMPL. AGRICOLAS LTDA.","country":"Brasil","state":"RO","city":"Cacoal","address":"Av. Castelo Branco","numero":"18539","zipcode":"76931-360","phone":"(69) 3441-2488","phone2":"","whatsapp":"","fax":"","email":"picapaumaquinas@bol.com.br","email2":"","latitude":"-11.43549000","longitude":"-61.46114000","tratores":"0","implementos":"0","pecas":"0"},{"id":"143","Codigo":"661","title":"PIAUI AUTOPE\u00c7AS E SERVI\u00c7OS DE MECANICA LTDA. ME","country":"Brasil","state":"PI","city":"Teresina","address":"Av. Valter Alencar - S\u00e3o Pedro","numero":"120","zipcode":"64019-625","phone":"(86) 3218-2899","phone2":"","whatsapp":"","fax":"","email":"piauimotores@outlook.com","email2":"","latitude":"-5.11674580","longitude":"-42.81011290","tratores":"0","implementos":"0","pecas":"0"},{"id":"144","Codigo":"662","title":"JHS TRATORES LTDA. ME","country":"Brasil","state":"SC","city":"Tai\u00f3","address":"Rua Hartwing Ern - Centro","numero":"73","zipcode":"89190-000","phone":"(47) 3562-0502","phone2":"","whatsapp":"","fax":"","email":"jhstratores@jhstratores.com.br","email2":"","latitude":"-27.11598470","longitude":"-49.99615050","tratores":"0","implementos":"0","pecas":"0"},{"id":"145","Codigo":"663","title":"COML. AGRICOLA HP LTDA EPP","country":"Brasil","state":"SP","city":"Paranapanema","address":"Rua Das Ep\u00edceas - Holambra Ii","numero":"218","zipcode":"18725-000","phone":"(14) 3769-9900","phone2":"","whatsapp":"","fax":"","email":"otto.stoltenborg@gmail.com","email2":"","latitude":"-23.44670590","longitude":"-48.87569470","tratores":"0","implementos":"0","pecas":"0"},{"id":"146","Codigo":"664","title":"AGRAMDIESEL IND E COM. DE PE\u00c7AS LTDA","country":"Brasil","state":"SP","city":"Votorantim","address":"Av. Antonio Castanharo - Pq. Jata\u00ed","numero":"525","zipcode":"18117-330","phone":"(15) 3229-5777","phone2":"","whatsapp":"","fax":"","email":"financeiro@agpartsbr.com","email2":"","latitude":"-23.56851230","longitude":"-47.45860430","tratores":"0","implementos":"0","pecas":"0"},{"id":"147","Codigo":"665","title":"REMPEL M\u00c1QUINAS AGR\u00cdCOLAS LTDA. - ME","country":"Brasil","state":"PR","city":"Marechal C\u00e2ndido Rondon","address":"Av. Rio Grande Do Sul - Sala 01 - Centro","numero":"5080","zipcode":"85960-000","phone":"(45) 3254-2062","phone2":"","whatsapp":"","fax":"","email":"romagrilmaquinas@hotmail.com","email2":"","latitude":"-24.55582000","longitude":"-54.05700000","tratores":"0","implementos":"0","pecas":"0"},{"id":"148","Codigo":"666","title":"G. V. PACHECO ME","country":"Brasil","state":"RS","city":"Morrinho Do Sul","address":"Roddovia Rs 494 - Centro","numero":"570","zipcode":"95577-000","phone":"(51) 3605-1016","phone2":"","whatsapp":"","fax":"","email":"gv.pacheco@outlook.com","email2":"","latitude":"-29.35825940","longitude":"-49.93331400","tratores":"0","implementos":"0","pecas":"0"},{"id":"149","Codigo":"667","title":"COOPERATIVA AGROPECUARIA PASSO DA FELICIDADE - COOPERPASSO","country":"Brasil","state":"SC","city":"Videira","address":"Rodovia: Sc","numero":"135","zipcode":"89560-000","phone":"(49) 3566-5534","phone2":"","whatsapp":"","fax":"","email":"simao@cooperpasso.com.br","email2":"","latitude":"-27.00596000","longitude":"-51.15165000","tratores":"0","implementos":"0","pecas":"0"},{"id":"150","Codigo":"669","title":"AGROPLAN MAQUINAS LTDA","country":"Brasil","state":"RS","city":"Tr\u00eas Cachoeiras","address":"Av. Padre Rizzeieri Dela - Centro","numero":"1149","zipcode":"95580-000","phone":"(51) 3667-1006","phone2":"","whatsapp":"","fax":"","email":"agroplanmaquinas@hotmail.com","email2":"","latitude":"-29.45582000","longitude":"-49.92400000","tratores":"0","implementos":"0","pecas":"0"},{"id":"151","Codigo":"670","title":"MENDON\u00c7A E OLIVEIRA LTDA","country":"Brasil","state":"RR","city":"Boa Vista","address":"Av. Ville Roy","numero":"7405","zipcode":"69303-445","phone":"(95) 3224-9541","phone2":"","whatsapp":"","fax":"","email":"jbmdeoliveira@uol.com","email2":"","latitude":"2.81493830","longitude":"-60.67793120","tratores":"0","implementos":"0","pecas":"0"},{"id":"152","Codigo":"671","title":"ADEOMAQ COM. DE PROD E MAQ AGRICOLAS LTDA","country":"Brasil","state":"RS","city":"Alpestre","address":"Avenida Farrapos","numero":"522","zipcode":"98480-000","phone":"(55) 3796-1058","phone2":"","whatsapp":"","fax":"","email":"adeomaq@oi.com.br","email2":"","latitude":"-27.25064420","longitude":"-53.03463990","tratores":"0","implementos":"0","pecas":"0"},{"id":"153","Codigo":"672","title":"J.M COMERCIO DE MAQUINAS LTDA EPP","country":"Brasil","state":"SC","city":"Chapec\u00f3","address":"Av. Senador At\u00edlio Fontana - Engenho Braun","numero":"885","zipcode":"89809-000","phone":"(49) 3323-8857","phone2":"","whatsapp":"","fax":"","email":"jmmaquinasdm@gmail.com","email2":"","latitude":"-27.08862000","longitude":"-52.61800000","tratores":"0","implementos":"0","pecas":"0"},{"id":"154","Codigo":"673","title":"RIZZI & CIA LTDA","country":"Brasil","state":"RS","city":"Montenegro","address":"Est Mauricio Cardoso Bairro:rua Barbosa","numero":"","zipcode":"95200-000","phone":"(54) 3232-4472","phone2":"","whatsapp":"","fax":"","email":"ricardo@agrimar.com.br","email2":"","latitude":"-29.68253000","longitude":"-51.46875000","tratores":"0","implementos":"0","pecas":"0"},{"id":"155","Codigo":"675","title":"JR M\u00c1QUINAS AGR\u00cdCOLAS","country":"Brasil","state":"MG","city":"Montes Claros","address":"Avenida Do Sol - Novo Delfino","numero":"650 A","zipcode":"39402-151","phone":"(38) 99170-5818","phone2":"","whatsapp":"","fax":"","email":"jrirrigacao.maquinas@gmail.com","email2":"","latitude":"-16.74202070","longitude":"-43.83002060","tratores":"0","implementos":"0","pecas":"0"},{"id":"156","Codigo":"676","title":"NENA TRATORES E IMPLEMENTOS LTDA","country":"Brasil","state":"MG","city":"Alfenas","address":"Av. Mario Barbosa Vieira - Loteamento Trevo","numero":"954","zipcode":"37132-442","phone":"(35) 3292-2211","phone2":"","whatsapp":"","fax":"","email":"gerencia.alfenas@nenatratores.com.br ","email2":"","latitude":"-21.45638030","longitude":"-45.94813920","tratores":"0","implementos":"0","pecas":"0"},{"id":"157","Codigo":"678","title":"TRIAMAQ","country":"Brasil","state":"MG","city":"Uberl\u00e2ndia","address":"Av. Prof. Minervina C. De Oliveira - Bom Jesus","numero":"2270","zipcode":"38400-746","phone":"(34) 3236-9001","phone2":"(34) 3236-2448","whatsapp":"","fax":"(34) 3236-2448","email":"triamaq@triamaq.com.br","email2":"","latitude":"-18.90746050","longitude":"-48.29842910","tratores":"0","implementos":"0","pecas":"0"},{"id":"158","Codigo":"679","title":"PULVETEC MAQUINAS AGRICOLAS LTDA","country":"Brasil","state":"PE","city":"Petrolina","address":"Br 407, \u2013 Jardim S\u00e3o Paulo","numero":"320","zipcode":"56314-570","phone":"(87) 3867-9575","phone2":"","whatsapp":"","fax":"(87) 3867-9575","email":"pulvetec@uol.com.br","email2":"","latitude":"-9.38908300","longitude":"-40.50309610","tratores":"0","implementos":"0","pecas":"0"},{"id":"159","Codigo":"680","title":"UNYTERRA MAQUINAS AGRICOLAS LTDA. (MATRIZ)","country":"Brasil","state":"RS","city":"Caxias Do Sul","address":"Rod.br.116 - Km.148","numero":"17043","zipcode":"95054-780","phone":"(54) 3238-8800","phone2":"","whatsapp":"","fax":"(54) 3238-8800","email":"gerente@unyterra.com.br","email2":"","latitude":"-29.18024001","longitude":"-51.16498249","tratores":"0","implementos":"0","pecas":"0"},{"id":"160","Codigo":"682","title":"ROMA TRATORES IMPLS. E PECAS LTDA","country":"Brasil","state":"SP","city":"Presidente Prudente","address":"Av.brasil","numero":"2830","zipcode":"19013-002","phone":"(18) 3223-1100","phone2":"","whatsapp":"","fax":"","email":"romatrat@stetnet.com.br","email2":"","latitude":"-22.13947490","longitude":"-51.39172300","tratores":"0","implementos":"0","pecas":"0"},{"id":"161","Codigo":"3232","title":"NAUTICA  PE\u00c7AS  E  AUTOMOTORES  PORTO  NOVO LTDA.","country":"Brasil","state":"RJ","city":"Angrados Reis","address":"Av. Jose Elias Rabla. 3 40 Loja A - B. Paroue Das Palmeras","numero":"","zipcode":"23906-510","phone":"(24) 3365-2767","phone2":"","whatsapp":"","fax":"","email":"contato@nauticaportonovo.com.br","email2":"","latitude":"-22.99955046","longitude":"-44.30118986","tratores":"0","implementos":"0","pecas":"0"},{"id":"162","Codigo":"3233","title":"AGROCENTER COMERCIAL DE HORTIFRUTIGRAJEIROS EIRELI","country":"Brasil","state":"PB","city":"Campina Grande","address":"Rua Dr.vanconcelos Loja 01 E 02 - Alto Branco","numero":"988","zipcode":"58401-450","phone":"(83) 3201-3482","phone2":"","whatsapp":"","fax":"","email":"agrocenterpb@gmail.com","email2":"","latitude":"-7.21088148","longitude":"-35.88340179","tratores":"0","implementos":"0","pecas":"0"},{"id":"163","Codigo":"3234","title":"VIAMAQ M\u00c1QUINAS E EQUIPAMENTOS LTDA - ME","country":"Brasil","state":"MS","city":"Chapad\u00e3o Do Sul","address":"Av. Onze - Centro","numero":"99","zipcode":"79560-000","phone":"(67) 3562-2527","phone2":"","whatsapp":"","fax":"","email":"cleo.viamaq@hotmail.com","email2":"","latitude":"-18.79509012","longitude":"-52.61869850","tratores":"0","implementos":"0","pecas":"0"},{"id":"164","Codigo":"3237","title":"MARIA APARECIDA PARADELLO TAGLIAFERRO - ME - IBRASA","country":"Brasil","state":"SP","city":"Lins","address":"Rua Pedro De Toledo - Centro","numero":"81","zipcode":"16400-105","phone":"(14) 3522-6120","phone2":"","whatsapp":"","fax":"","email":"ibrasa.lins@hotmail.com","email2":"","latitude":"-21.66979220","longitude":"-49.75179342","tratores":"0","implementos":"0","pecas":"0"},{"id":"165","Codigo":"3238","title":"AGRICOLA RIO PRETO LTDA","country":"Brasil","state":"AM","city":"Manaus","address":"Av. Torquato Tapajos - Flores","numero":"392","zipcode":"69058-830","phone":"(92) 9633-4334","phone2":"","whatsapp":"","fax":"","email":"geovane@agroam.com.br","email2":"","latitude":"-3.07053498","longitude":"-60.02535679","tratores":"0","implementos":"0","pecas":"0"},{"id":"166","Codigo":"3239","title":"AGRO MARITIMOS LTDA","country":"Brasil","state":"AM","city":"Manaus","address":"Av. Pres. Castelo Branco - Cachoeirinha","numero":"675 a 679","zipcode":"69065-010","phone":"(92) 3635-1212","phone2":"","whatsapp":"","fax":"","email":"agromaritimos@hotmail.com","email2":"","latitude":"-3.12943892","longitude":"-60.00824116","tratores":"0","implementos":"0","pecas":"0"},{"id":"167","Codigo":"3241","title":"AGROCONQUISTA COM. DE TRATORES E IMPL. AGRICOLAS - EIRELLI","country":"Brasil","state":"RJ","city":"Nova Friburgo","address":"Av. Mario De Azevedo - Centro","numero":"21279","zipcode":"28630-590","phone":"(22) 2543-4111","phone2":"","whatsapp":"","fax":"","email":"josias@agroconquistamaquinas.com.br","email2":"","latitude":"-22.26890330","longitude":"-42.61386339","tratores":"0","implementos":"0","pecas":"0"},{"id":"168","Codigo":"3242","title":"MAYCON CARDOSO REIS S\u00c1 - ME","country":"Brasil","state":"MG","city":"Novo Cruzeiro","address":"Pra\u00e7a Sargento Noraldino Rosa - Centro","numero":"337","zipcode":"39820-000","phone":"(33) 3533-1504","phone2":"","whatsapp":"","fax":"","email":"mayconcasadogado@hotmail.com","email2":"","latitude":"-17.46587744","longitude":"-41.87611045","tratores":"0","implementos":"0","pecas":"0"},{"id":"169","Codigo":"3243","title":"PANTHERA MAQUINAS PELAS E IMPLEMENTOS AGRICOLAS LTDA. (ANTIGA JB)","country":"Brasil","state":"PA","city":"Ourilandia Do Norte","address":"Av. Das Na\u00e7\u00f5es - Centro","numero":"1027","zipcode":"68390-000","phone":"(94) 3434-1422","phone2":"","whatsapp":"","fax":"","email":"contabilidadeizaac@hotmail.com","email2":"","latitude":"-6.74881485","longitude":"-51.08779355","tratores":"0","implementos":"0","pecas":"0"},{"id":"170","Codigo":"3244","title":"MOI MAQUINAS E IMPLEMENTOS AGRICOLAS LTDA","country":"Brasil","state":"TO","city":"Porto Nacional","address":"Rua 200 Quadra 258 Lote 1 A 7 Sala 2 S\/n\u00ba - Porto Imperial","numero":"","zipcode":"77500-000","phone":"(63) 3363-1323","phone2":"","whatsapp":"","fax":"","email":"moi@moimaquinas.com.br","email2":"","latitude":"-10.24523707","longitude":"-48.33310041","tratores":"0","implementos":"0","pecas":"0"},{"id":"171","Codigo":"3245","title":"EDIMAQ-EMP. DISTR. E IMP. DE MAQS. LTDA","country":"Brasil","state":"RO","city":"Porto Velho","address":"Av. Na\u00e7\u00f5es Unidas - Nossa Senhora Das Gra\u00e7as","numero":"1609","zipcode":"76804-437","phone":"(69) 3211-8300","phone2":"","whatsapp":"","fax":"","email":"contabilidade@edimaq.com","email2":"","latitude":"-8.76868164","longitude":"-63.88480693","tratores":"0","implementos":"0","pecas":"0"},{"id":"172","Codigo":"3246","title":"LUIZ APARECIDO CAMARGO (IRRIGAR CERTO)","country":"Brasil","state":"AC","city":"Rio Branco","address":"Rua 12 De Outubro - Placas","numero":"69","zipcode":"69902-768","phone":"(68) 99931-4126","phone2":"","whatsapp":"(68) 99931-4126","fax":"","email":"luizrecom@hotmail.com","email2":"","latitude":"-9.94849795","longitude":"-67.81401393","tratores":"0","implementos":"0","pecas":"0"},{"id":"173","Codigo":"3247","title":"P & S COMERCIO DE MAQUINAS LTDA","country":"Brasil","state":"BA","city":"Rio Real","address":"Rua Da Jandaira, Anexo A - Centro","numero":"","zipcode":"48330-000","phone":"(75) 3426-2466","phone2":"","whatsapp":"","fax":"","email":"messiasoliveira@anagronorte.com.br","email2":"","latitude":"-11.48373000","longitude":"-37.93445552","tratores":"0","implementos":"0","pecas":"0"},{"id":"174","Codigo":"3248","title":"JC FERNANDES ELETRODOMESTICOS","country":"Brasil","state":"AM","city":"Santo Antonio Do I\u00e7\u00e1","address":"Rua Alvaro Maia - Centro","numero":"719","zipcode":"69680-000","phone":"(97) 3461-1488","phone2":"","whatsapp":"","fax":"","email":"","email2":"","latitude":"-3.10422329","longitude":"-67.94540784","tratores":"0","implementos":"0","pecas":"0"},{"id":"175","Codigo":"3249","title":"OLIM AGRO CEREAIS LTDA.","country":"Brasil","state":"SC","city":"S\u00e3o Joaquim","address":"Av. Irineu Bornhausen - Bairro Martorano","numero":"50 - Sala 02","zipcode":"88600-000","phone":"(48) 3522-3040","phone2":"","whatsapp":"(48) 99151-7761","fax":"","email":"luciano.lima@olim.com.br","email2":"","latitude":"-28.28937122","longitude":"-49.93521795","tratores":"0","implementos":"0","pecas":"0"},{"id":"176","Codigo":"3250","title":"JO\u00c3O RIBEIRO LIMA & CIA LTDA - CASA DA VARIEDADE (MATRIZ)","country":"Brasil","state":"CE","city":"Ubajara","address":"Rua 31 De Dezembro - Centro","numero":"325","zipcode":"62350-000","phone":"(88) 3634-1381","phone2":"","whatsapp":"","fax":"","email":"casadavariedade@bol.com.br","email2":"","latitude":"-3.85442283","longitude":"-40.92110469","tratores":"0","implementos":"0","pecas":"0"},{"id":"177","Codigo":"3251","title":"COOPERATIVA AGROPECU\u00c1RIA PASSO DA FELICIDADE - COOPERPASSO (FILIAL)","country":"Brasil","state":"SC","city":"Videira","address":"Rodovia - Sc 135 S\/n - Km 125 3 - Campo Experimental","numero":"","zipcode":"89560-000","phone":"(49) 3566-5534","phone2":"","whatsapp":"","fax":"","email":"emerson@cooperpasso.com.br","email2":"","latitude":"-27.02689231","longitude":"-51.14839754","tratores":"0","implementos":"0","pecas":"0"},{"id":"178","Codigo":"3252","title":"FLUMISERRA M. AGR. IND COM LTDA","country":"Brasil","state":"RJ","city":"Volta Redonda","address":"Av. Almirante Adalberto Nunes ","numero":"3676","zipcode":"27274-200","phone":"(24) 3346-2074","phone2":"","whatsapp":"","fax":"","email":"flumisserra@flumisserra.com.br","email2":"","latitude":"-22.50857627","longitude":"-44.12258265","tratores":"0","implementos":"0","pecas":"0"},{"id":"179","Codigo":"3290","title":"COMERCIAL SCARDUA","country":"Brasil","state":"ES","city":"Serra","address":"Rodovia Governador Mario Covas","numero":"4251","zipcode":"29278-000","phone":"(27) 3721-5412","phone2":"","whatsapp":"(27) 9 9720-3423","fax":"","email":"comercial@comercialscardua.com.br","email2":"gerencia@comercialscardua.com.br","latitude":"20.36244670","longitude":"40.69323750","tratores":"0","implementos":"0","pecas":"0"},{"id":"180","Codigo":"3291","title":"COMERCIAL SCARDUA","country":"Brasil","state":"ES","city":"Serra","address":"Rodovia Governador Mario Covas","numero":"4251","zipcode":"29909-010","phone":"(27) 9 9913-7477","phone2":"","whatsapp":"(27) 9 9720-3423","fax":"","email":"comercial@comercialscardua.com.br","email2":"gerencia@comercialscardua.com.br","latitude":"19.39896590","longitude":"40.10037000","tratores":"0","implementos":"0","pecas":"0"},{"id":"181","Codigo":"3293","title":"COMERCIAL SCARDUA","country":"Brasil","state":"ES","city":"Serra","address":"Rodovia Governador Mario Covas","numero":"4251","zipcode":"29162-703","phone":"(27) 3221-2391","phone2":"","whatsapp":"(27) 9 9720-3423","fax":"","email":"comercial@comercialscardua.com.br","email2":"gerencia@comercialscardua.com.br","latitude":"20.12790140","longitude":"40.34312720","tratores":"0","implementos":"0","pecas":"0"},{"id":"182","Codigo":"3300","title":"OSMAR MAREGA LTDA \u2013 MAREGA IMPLEMENTOS","country":"Brasil","state":"PR","city":"Maring\u00e1","address":"Rodovia Pr 317, 2105 Pq Industrial","numero":"","zipcode":"87065-005","phone":"(44) 3052-5151","phone2":"","whatsapp":"(44) 99972-2365","fax":"","email":"mailto:maregaimplementos@hotmail.com","email2":"","latitude":"-23.48289800","longitude":"52.00501400","tratores":"0","implementos":"0","pecas":"0"},{"id":"183","Codigo":"3309","title":"AGR\u00cdCOLA CARMELITANA LTDA","country":"Brasil","state":"MG","city":"Monte Carmelo","address":"Avenida Oleg\u00e1rio Maciel - Batuque","numero":"446","zipcode":"38500-000","phone":"(34) 3842-3188","phone2":"","whatsapp":"","fax":"","email":"carmelitana@parkmaquinas.com.br","email2":"","latitude":"-18.73334018","longitude":"-47.49856507","tratores":"0","implementos":"0","pecas":"0"},{"id":"184","Codigo":"3314","title":"RIZZI & CIA LTDA ","country":"Brasil","state":"RS","city":"Montenegro","address":"Est Mauricio Cardoso Bairro:rua Barbosa","numero":"","zipcode":"95780-000","phone":"(54) 3238-8200","phone2":"","whatsapp":"","fax":"","email":"lucas.dosciatti@agrimar.com.br","email2":"claudio.pereira@agrimar.com.br","latitude":"-29.68656900","longitude":"-51.48176800","tratores":"0","implementos":"0","pecas":"0"},{"id":"185","Codigo":"3321","title":"AGRO OUROVERDE LTDA","country":"Brasil","state":"SC","city":"Santa Terezinha","address":"Rua Bruno Pieczarcka - Centro","numero":"620","zipcode":"89199-000","phone":"(47) 3556-0010","phone2":"","whatsapp":"","fax":"","email":"santaterezinha@agroouroverde.agr.br","email2":"","latitude":"-26.77791135","longitude":"-50.00689973","tratores":"0","implementos":"0","pecas":"0"},{"id":"186","Codigo":"3323","title":"IMPLEMAQ IMPLEMENTOS E MAQ. AGRICOLAS LTDA","country":"Brasil","state":"PR","city":"Palmeira","address":"Avenida Das Palmeiras - Colonia Francesa","numero":"1033","zipcode":"84130-000","phone":"(42) 3355-8982","phone2":"","whatsapp":"","fax":"","email":"felipe@implemaqagro.com.br","email2":"","latitude":"-25.44517016","longitude":"-50.01133573","tratores":"0","implementos":"0","pecas":"0"},{"id":"187","Codigo":"3324","title":"RGM COM\u00c9RCIO E SERVI\u00c7OS  DE MAQ.AGRICOLAS LTDA","country":"Brasil","state":"MG","city":"Muria\u00e9","address":"Rua Antenor Mazorque Sobrinho, Barra","numero":"194","zipcode":"36884-034","phone":"(32) 3722-5448","phone2":"","whatsapp":"(32) 98892-6617","fax":"","email":"ranielledamatta@agrovalemg.com.br","email2":"","latitude":"-21.13030000","longitude":"-42.36740000","tratores":"0","implementos":"0","pecas":"0"}]